{
    "Asia": [
        {
            "country": "Afghanistan",
            "airports": [
                {
                    "airport_code": "KBL",
                    "estimated_yearly_passengers": 4.0,
                    "location": {
                        "longitude": 69.212328,
                        "latitude": 34.565853
                    }
                },
                {
                    "airport_code": "MZR",
                    "estimated_yearly_passengers": 0.0,
                    "location": {
                        "longitude": 67.209678,
                        "latitude": 36.706914
                    }
                },
                {
                    "airport_code": "KDH",
                    "estimated_yearly_passengers": 1.98,
                    "location": {
                        "longitude": 65.8478,
                        "latitude": 31.505875
                    }
                }
            ]
        },
        {
            "country": "Palestine",
            "airports": []
        },
        {
            "country": "Azerbaijan",
            "airports": [
                {
                    "airport_code": "GYD",
                    "estimated_yearly_passengers": 7.537,
                    "location": {
                        "longitude": 50.045429,
                        "latitude": 40.467351
                    }
                },
                {
                    "airport_code": "NAJ",
                    "estimated_yearly_passengers": 0.526,
                    "location": {
                        "longitude": 45.457461,
                        "latitude": 39.187406
                    }
                }
            ]
        },
        {
            "country": "Bahrain",
            "airports": [
                {
                    "airport_code": "BAH",
                    "estimated_yearly_passengers": 9.4,
                    "location": {
                        "longitude": 50.63361,
                        "latitude": 26.270834
                    }
                }
            ]
        },
        {
            "country": "Bangladesh",
            "airports": [
                {
                    "airport_code": "DAC",
                    "estimated_yearly_passengers": 12.5,
                    "location": {
                        "longitude": 90.397781,
                        "latitude": 23.843333
                    }
                },
                {
                    "airport_code": "CGP",
                    "estimated_yearly_passengers": 2.5,
                    "location": {
                        "longitude": 91.813286,
                        "latitude": 22.249611
                    }
                },
                {
                    "airport_code": "ZYL",
                    "estimated_yearly_passengers": 0.63,
                    "location": {
                        "longitude": 91.866783,
                        "latitude": 24.963242
                    }
                }
            ]
        },
        {
            "country": "Bhutan",
            "airports": [
                {
                    "airport_code": "PBH",
                    "estimated_yearly_passengers": 0.03,
                    "location": {
                        "longitude": 89.424606,
                        "latitude": 27.403192
                    }
                }
            ]
        },
        {
            "country": "Brunei",
            "airports": [
                {
                    "airport_code": "BWN",
                    "estimated_yearly_passengers": 1.464,
                    "location": {
                        "longitude": 114.928353,
                        "latitude": 4.9442
                    }
                }
            ]
        },
        {
            "country": "Cambodia",
            "airports": [
                {
                    "airport_code": "PNH",
                    "estimated_yearly_passengers": 4.75,
                    "location": {
                        "longitude": 104.844139,
                        "latitude": 11.546556
                    }
                },
                {
                    "airport_code": "SAI",
                    "estimated_yearly_passengers": 1.3,
                    "location": {
                        "longitude": 103.8131,
                        "latitude": 13.4104
                    }
                },
                {
                    "airport_code": "KOS",
                    "estimated_yearly_passengers": 0.8,
                    "location": {
                        "longitude": 103.636828,
                        "latitude": 10.579686
                    }
                }
            ]
        },
        {
            "country": "Iraq",
            "airports": [
                {
                    "airport_code": "BGW",
                    "estimated_yearly_passengers": 3.4,
                    "location": {
                        "longitude": 44.233,
                        "latitude": 33.2675
                    }
                },
                {
                    "airport_code": "NJF",
                    "estimated_yearly_passengers": 2.6,
                    "location": {
                        "longitude": 44.40417,
                        "latitude": 31.98972
                    }
                },
                {
                    "airport_code": "EBL",
                    "estimated_yearly_passengers": 2.084,
                    "location": {
                        "longitude": 43.96306,
                        "latitude": 36.2375
                    }
                },
                {
                    "airport_code": "ISU",
                    "estimated_yearly_passengers": 1.5,
                    "location": {
                        "longitude": 45.31444,
                        "latitude": 35.56083
                    }
                }
            ]
        },
        {
            "country": "Jordan",
            "airports": [
                {
                    "airport_code": "AMM",
                    "estimated_yearly_passengers": 8.8,
                    "location": {
                        "longitude": 35.993214,
                        "latitude": 31.722556
                    }
                },
                {
                    "airport_code": "AQJ",
                    "estimated_yearly_passengers": 0.3,
                    "location": {
                        "longitude": 35.018067,
                        "latitude": 29.611619
                    }
                }
            ]
        },
        {
            "country": "Kuwait",
            "airports": [
                {
                    "airport_code": "KWI",
                    "estimated_yearly_passengers": 15.4,
                    "location": {
                        "longitude": 47.979842,
                        "latitude": 29.226964
                    }
                }
            ]
        },
        {
            "country": "Kyrgyzstan",
            "airports": [
                {
                    "airport_code": "BSZ",
                    "estimated_yearly_passengers": 1.55,
                    "location": {
                        "longitude": 74.4775,
                        "latitude": 43.06139
                    }
                },
                {
                    "airport_code": "OSS",
                    "estimated_yearly_passengers": 0.92,
                    "location": {
                        "longitude": 72.793333,
                        "latitude": 40.608333
                    }
                }
            ]
        },
        {
            "country": "Laos",
            "airports": [
                {
                    "airport_code": "VTE",
                    "estimated_yearly_passengers": 1.3,
                    "location": {
                        "longitude": 102.563258,
                        "latitude": 17.988311
                    }
                },
                {
                    "airport_code": "LPQ",
                    "estimated_yearly_passengers": 0.3,
                    "location": {
                        "longitude": 102.160764,
                        "latitude": 19.897914
                    }
                }
            ]
        },
        {
            "country": "Lebanon",
            "airports": [
                {
                    "airport_code": "BEY",
                    "estimated_yearly_passengers": 7.128,
                    "location": {
                        "longitude": 35.488389,
                        "latitude": 33.820931
                    }
                }
            ]
        },
        {
            "country": "Maldives",
            "airports": [
                {
                    "airport_code": "MLE",
                    "estimated_yearly_passengers": 5.6,
                    "location": {
                        "longitude": 73.529128,
                        "latitude": 4.191833
                    }
                }
            ]
        },
        {
            "country": "Mongolia",
            "airports": [
                {
                    "airport_code": "UBN",
                    "estimated_yearly_passengers": 2.84,
                    "location": {
                        "longitude": 106.82139,
                        "latitude": 47.65139
                    }
                }
            ]
        },
        {
            "country": "Myanmar",
            "airports": [
                {
                    "airport_code": "RGN",
                    "estimated_yearly_passengers": 2.4,
                    "location": {
                        "longitude": 96.133239,
                        "latitude": 16.907231
                    }
                },
                {
                    "airport_code": "MDL",
                    "estimated_yearly_passengers": 2.3,
                    "location": {
                        "longitude": 95.977928,
                        "latitude": 21.702156
                    }
                }
            ]
        },
        {
            "country": "North Korea",
            "airports": [
                {
                    "airport_code": "FNJ",
                    "estimated_yearly_passengers": 1.0,
                    "location": {
                        "longitude": 125.67015,
                        "latitude": 39.224061
                    }
                }
            ]
        },
        {
            "country": "Oman",
            "airports": [
                {
                    "airport_code": "MCT",
                    "estimated_yearly_passengers": 12.9,
                    "location": {
                        "longitude": 58.284444,
                        "latitude": 23.593278
                    }
                },
                {
                    "airport_code": "SLL",
                    "estimated_yearly_passengers": 1.32,
                    "location": {
                        "longitude": 54.091297,
                        "latitude": 17.038719
                    }
                }
            ]
        },
        {
            "country": "Qatar",
            "airports": [
                {
                    "airport_code": "DOH",
                    "estimated_yearly_passengers": 52.7,
                    "location": {
                        "longitude": 51.565056,
                        "latitude": 25.261125
                    }
                }
            ]
        },
        {
            "country": "Saudi Arabia",
            "airports": [
                {
                    "airport_code": "JED",
                    "estimated_yearly_passengers": 49.0,
                    "location": {
                        "longitude": 39.156536,
                        "latitude": 21.679564
                    }
                },
                {
                    "airport_code": "RUH",
                    "estimated_yearly_passengers": 37.6,
                    "location": {
                        "longitude": 46.698776,
                        "latitude": 24.95764
                    }
                },
                {
                    "airport_code": "DMM",
                    "estimated_yearly_passengers": 12.8,
                    "location": {
                        "longitude": 49.7979,
                        "latitude": 26.471197
                    }
                },
                {
                    "airport_code": "MED",
                    "estimated_yearly_passengers": 10.913,
                    "location": {
                        "longitude": 39.705358,
                        "latitude": 24.552658
                    }
                },
                {
                    "airport_code": "ELQ",
                    "estimated_yearly_passengers": 1.1,
                    "location": {
                        "longitude": 43.773911,
                        "latitude": 26.302822
                    }
                },
                {
                    "airport_code": "AHB",
                    "estimated_yearly_passengers": 4.368,
                    "location": {
                        "longitude": 42.656625,
                        "latitude": 18.240367
                    }
                },
                {
                    "airport_code": "TIF",
                    "estimated_yearly_passengers": 1.0,
                    "location": {
                        "longitude": 40.544334,
                        "latitude": 21.483418
                    }
                }
            ]
        },
        {
            "country": "Singapore",
            "airports": [
                {
                    "airport_code": "SIN",
                    "estimated_yearly_passengers": 67.7,
                    "location": {
                        "longitude": 103.994378,
                        "latitude": 1.350164
                    }
                }
            ]
        },
        {
            "country": "Sri Lanka",
            "airports": [
                {
                    "airport_code": "CMB",
                    "estimated_yearly_passengers": 8.5,
                    "location": {
                        "longitude": 79.884117,
                        "latitude": 7.180756
                    }
                },
                {
                    "airport_code": "JAF",
                    "estimated_yearly_passengers": 0.2,
                    "location": {
                        "longitude": 80.070089,
                        "latitude": 9.792331
                    }
                },
                {
                    "airport_code": "HRI",
                    "estimated_yearly_passengers": 0.026,
                    "location": {
                        "longitude": 81.12361,
                        "latitude": 6.28889
                    }
                }
            ]
        },
        {
            "country": "Syria",
            "airports": [
                {
                    "airport_code": "DAM",
                    "estimated_yearly_passengers": 5.5,
                    "location": {
                        "longitude": 36.514267,
                        "latitude": 33.410636
                    }
                },
                {
                    "airport_code": "ALP",
                    "estimated_yearly_passengers": 0.487,
                    "location": {
                        "longitude": 37.224358,
                        "latitude": 36.180675
                    }
                },
                {
                    "airport_code": "LTK",
                    "estimated_yearly_passengers": 0.0,
                    "location": {
                        "longitude": 35.948681,
                        "latitude": 35.401094
                    }
                }
            ]
        },
        {
            "country": "Tajikistan",
            "airports": [
                {
                    "airport_code": "DYU",
                    "estimated_yearly_passengers": 2.34,
                    "location": {
                        "longitude": 68.824639,
                        "latitude": 38.543486
                    }
                },
                {
                    "airport_code": "LBD",
                    "estimated_yearly_passengers": 0.8,
                    "location": {
                        "longitude": 69.694708,
                        "latitude": 40.215394
                    }
                },
                {
                    "airport_code": "TJU",
                    "estimated_yearly_passengers": 0.0,
                    "location": {
                        "longitude": 69.805,
                        "latitude": 37.98833
                    }
                },
                {
                    "airport_code": "KQT",
                    "estimated_yearly_passengers": 0.0,
                    "location": {
                        "longitude": 68.86278,
                        "latitude": 37.86222
                    }
                }
            ]
        },
        {
            "country": "Timor-Leste",
            "airports": [
                {
                    "airport_code": "DIL",
                    "estimated_yearly_passengers": 0.275,
                    "location": {
                        "longitude": 125.524719,
                        "latitude": -8.546553
                    }
                },
                {
                    "airport_code": "OEC",
                    "estimated_yearly_passengers": 0.0,
                    "location": {
                        "longitude": 124.3407,
                        "latitude": -9.2015
                    }
                }
            ]
        },
        {
            "country": "Turkmenistan",
            "airports": [
                {
                    "airport_code": "ASB",
                    "estimated_yearly_passengers": 1.3,
                    "location": {
                        "longitude": 58.360967,
                        "latitude": 37.986814
                    }
                },
                {
                    "airport_code": "CRZ",
                    "estimated_yearly_passengers": 0.23,
                    "location": {
                        "longitude": 63.613333,
                        "latitude": 39.083333
                    }
                },
                {
                    "airport_code": "KRW",
                    "estimated_yearly_passengers": 0.0,
                    "location": {
                        "longitude": 53.007222,
                        "latitude": 40.063333
                    }
                },
                {
                    "airport_code": "MYP",
                    "estimated_yearly_passengers": 0.0,
                    "location": {
                        "longitude": 61.896667,
                        "latitude": 37.619444
                    }
                },
                {
                    "airport_code": "TAZ",
                    "estimated_yearly_passengers": 0.0,
                    "location": {
                        "longitude": 59.826667,
                        "latitude": 41.761111
                    }
                },
                {
                    "airport_code": "KEA",
                    "estimated_yearly_passengers": 0.0,
                    "location": {
                        "longitude": 65.1399,
                        "latitude": 37.8231
                    }
                }
            ]
        }
    ],
    "Europe": [
        {
            "country": "Albania",
            "airports": [
                {
                    "airport_code": "TIA",
                    "estimated_yearly_passengers": 10.7,
                    "location": {
                        "longitude": 19.720561,
                        "latitude": 41.414742
                    }
                },
                {
                    "airport_code": "KFZ",
                    "estimated_yearly_passengers": 0.15,
                    "location": {
                        "longitude": 20.415955,
                        "latitude": 42.035802
                    }
                }
            ]
        },
        {
            "country": "Andorra",
            "airports": []
        },
        {
            "country": "San Marino",
            "airports": []
        },
        {
            "country": "Liechtenstein",
            "airports": []
        },
        {
            "country": "Belarus",
            "airports": [
                {
                    "airport_code": "MSQ",
                    "estimated_yearly_passengers": 2.5,
                    "location": {
                        "longitude": 28.030731,
                        "latitude": 53.882469
                    }
                }
            ]
        },
        {
            "country": "Bosnia and Herzegovina",
            "airports": [
                {
                    "airport_code": "SJJ",
                    "estimated_yearly_passengers": 1.822,
                    "location": {
                        "longitude": 18.331467,
                        "latitude": 43.824583
                    }
                },
                {
                    "airport_code": "TZL",
                    "estimated_yearly_passengers": 0.582,
                    "location": {
                        "longitude": 18.724783,
                        "latitude": 44.458656
                    }
                },
                {
                    "airport_code": "BNX",
                    "estimated_yearly_passengers": 0.46,
                    "location": {
                        "longitude": 17.297501,
                        "latitude": 44.941444
                    }
                }
            ]
        },
        {
            "country": "Cyprus",
            "airports": [
                {
                    "airport_code": "LCA",
                    "estimated_yearly_passengers": 8.66,
                    "location": {
                        "longitude": 33.623756,
                        "latitude": 34.873394
                    }
                },
                {
                    "airport_code": "PFO",
                    "estimated_yearly_passengers": 3.63,
                    "location": {
                        "longitude": 32.485731,
                        "latitude": 34.718039
                    }
                },
                {
                    "airport_code": "ECN",
                    "estimated_yearly_passengers": 3.99,
                    "location": {
                        "longitude": 33.5037,
                        "latitude": 35.1473
                    }
                }
            ]
        },
        {
            "country": "Czech Republic",
            "airports": [
                {
                    "airport_code": "PRG",
                    "estimated_yearly_passengers": 16.354,
                    "location": {
                        "longitude": 14.26,
                        "latitude": 50.100833
                    }
                },
                {
                    "airport_code": "BRQ",
                    "estimated_yearly_passengers": 0.749,
                    "location": {
                        "longitude": 16.694433,
                        "latitude": 49.151269
                    }
                },
                {
                    "airport_code": "OSR",
                    "estimated_yearly_passengers": 0.494,
                    "location": {
                        "longitude": 18.111053,
                        "latitude": 49.696292
                    }
                }
            ]
        },
        {
            "country": "Kosovo",
            "airports": [
                {
                    "airport_code": "PRN",
                    "estimated_yearly_passengers": 4.1,
                    "location": {
                        "longitude": 21.03583,
                        "latitude": 42.57278
                    }
                }
            ]
        },
        {
            "country": "Luxembourg",
            "airports": [
                {
                    "airport_code": "LUX",
                    "estimated_yearly_passengers": 5.148,
                    "location": {
                        "longitude": 6.211517,
                        "latitude": 49.626575
                    }
                }
            ]
        },
        {
            "country": "Malta",
            "airports": [
                {
                    "airport_code": "MLA",
                    "estimated_yearly_passengers": 7.8,
                    "location": {
                        "longitude": 14.477439,
                        "latitude": 35.857542
                    }
                }
            ]
        },
        {
            "country": "Moldova",
            "airports": [
                {
                    "airport_code": "KIV",
                    "estimated_yearly_passengers": 4.14,
                    "location": {
                        "longitude": 28.930928,
                        "latitude": 46.927797
                    }
                }
            ]
        },
        {
            "country": "Montenegro",
            "airports": [
                {
                    "airport_code": "TGD",
                    "estimated_yearly_passengers": 1.758,
                    "location": {
                        "longitude": 19.251894,
                        "latitude": 42.359392
                    }
                },
                {
                    "airport_code": "TIV",
                    "estimated_yearly_passengers": 1.124,
                    "location": {
                        "longitude": 18.723286,
                        "latitude": 42.404664
                    }
                }
            ]
        },
        {
            "country": "North Macedonia",
            "airports": [
                {
                    "airport_code": "SKP",
                    "estimated_yearly_passengers": 2.88,
                    "location": {
                        "longitude": 21.621381,
                        "latitude": 41.961622
                    }
                },
                {
                    "airport_code": "OHD",
                    "estimated_yearly_passengers": 0.266,
                    "location": {
                        "longitude": 20.742325,
                        "latitude": 41.179956
                    }
                }
            ]
        },
        {
            "country": "Serbia",
            "airports": [
                {
                    "airport_code": "BEG",
                    "estimated_yearly_passengers": 8.37,
                    "location": {
                        "longitude": 20.309139,
                        "latitude": 44.818444
                    }
                },
                {
                    "airport_code": "INI",
                    "estimated_yearly_passengers": 0.357,
                    "location": {
                        "longitude": 21.853722,
                        "latitude": 43.337289
                    }
                },
                {
                    "airport_code": "KVO",
                    "estimated_yearly_passengers": 0.014,
                    "location": {
                        "longitude": 20.58528,
                        "latitude": 43.81861
                    }
                }
            ]
        },
        {
            "country": "Slovakia",
            "airports": [
                {
                    "airport_code": "BTS",
                    "estimated_yearly_passengers": 1.95,
                    "location": {
                        "longitude": 17.212733,
                        "latitude": 48.170086
                    }
                },
                {
                    "airport_code": "KSC",
                    "estimated_yearly_passengers": 0.739,
                    "location": {
                        "longitude": 21.241156,
                        "latitude": 48.663031
                    }
                },
                {
                    "airport_code": "TAT",
                    "estimated_yearly_passengers": 0.0725,
                    "location": {
                        "longitude": 20.241194,
                        "latitude": 49.073578
                    }
                }
            ]
        },
        {
            "country": "Slovenia",
            "airports": [
                {
                    "airport_code": "LJU",
                    "estimated_yearly_passengers": 1.44,
                    "location": {
                        "longitude": 14.457611,
                        "latitude": 46.223686
                    }
                }
            ]
        }
    ],
    "Africa": [
        {
            "country": "Angola",
            "airports": [
                {
                    "airport_code": "NBJ",
                    "estimated_yearly_passengers": 5.6,
                    "location": {
                        "longitude": 13.499,
                        "latitude": -9.0505
                    }
                },
                {
                    "airport_code": "LAD",
                    "estimated_yearly_passengers": 5.6,
                    "location": {
                        "longitude": 13.231178,
                        "latitude": -8.858375
                    }
                },
                {
                    "airport_code": "CBT",
                    "estimated_yearly_passengers": 0.0,
                    "location": {
                        "longitude": 13.4902,
                        "latitude": -12.4938
                    }
                }
            ]
        },
        {
            "country": "Benin",
            "airports": [
                {
                    "airport_code": "COO",
                    "estimated_yearly_passengers": 0.555,
                    "location": {
                        "longitude": 2.384353,
                        "latitude": 6.357228
                    }
                }
            ]
        },
        {
            "country": "Botswana",
            "airports": [
                {
                    "airport_code": "GBE",
                    "estimated_yearly_passengers": 0.366,
                    "location": {
                        "longitude": 25.918208,
                        "latitude": -24.555225
                    }
                },
                {
                    "airport_code": "MUB",
                    "estimated_yearly_passengers": 0.289,
                    "location": {
                        "longitude": 23.431086,
                        "latitude": -19.972564
                    }
                }
            ]
        },
        {
            "country": "Burkina Faso",
            "airports": [
                {
                    "airport_code": "OUA",
                    "estimated_yearly_passengers": 0.245,
                    "location": {
                        "longitude": -1.512417,
                        "latitude": 12.353194
                    }
                }
            ]
        },
        {
            "country": "Burundi",
            "airports": [
                {
                    "airport_code": "BJM",
                    "estimated_yearly_passengers": 0.131,
                    "location": {
                        "longitude": 29.318519,
                        "latitude": -3.324019
                    }
                }
            ]
        },
        {
            "country": "Cape Verde",
            "airports": [
                {
                    "airport_code": "SID",
                    "estimated_yearly_passengers": 1.193,
                    "location": {
                        "longitude": -22.949,
                        "latitude": 16.742042
                    }
                },
                {
                    "airport_code": "RAI",
                    "estimated_yearly_passengers": 0.662,
                    "location": {
                        "longitude": -23.484708,
                        "latitude": 14.941119
                    }
                }
            ]
        },
        {
            "country": "Cameroon",
            "airports": [
                {
                    "airport_code": "DLA",
                    "estimated_yearly_passengers": 1.5,
                    "location": {
                        "longitude": 9.719481,
                        "latitude": 4.006081
                    }
                }
            ]
        },
        {
            "country": "Central African Republic",
            "airports": [
                {
                    "airport_code": "BGF",
                    "estimated_yearly_passengers": 0.066,
                    "location": {
                        "longitude": 18.518786,
                        "latitude": 4.398475
                    }
                }
            ]
        },
        {
            "country": "Chad",
            "airports": [
                {
                    "airport_code": "NDJ",
                    "estimated_yearly_passengers": 0.219,
                    "location": {
                        "longitude": 15.033961,
                        "latitude": 12.133719
                    }
                }
            ]
        },
        {
            "country": "Comoros",
            "airports": [
                {
                    "airport_code": "HAH",
                    "estimated_yearly_passengers": 0.16,
                    "location": {
                        "longitude": 43.27185,
                        "latitude": -11.533661
                    }
                }
            ]
        },
        {
            "country": "Democratic Republic of the Congo",
            "airports": [
                {
                    "airport_code": "FIH",
                    "estimated_yearly_passengers": 0.8,
                    "location": {
                        "longitude": 15.444489,
                        "latitude": -4.385736
                    }
                },
                {
                    "airport_code": "FBM",
                    "estimated_yearly_passengers": 0.2,
                    "location": {
                        "longitude": 27.530889,
                        "latitude": -11.591178
                    }
                }
            ]
        },
        {
            "country": "Republic of the Congo",
            "airports": [
                {
                    "airport_code": "BZV",
                    "estimated_yearly_passengers": 0.7,
                    "location": {
                        "longitude": 15.253031,
                        "latitude": -4.2517
                    }
                }
            ]
        },
        {
            "country": "Ivory Coast",
            "airports": [
                {
                    "airport_code": "ABJ",
                    "estimated_yearly_passengers": 2.5,
                    "location": {
                        "longitude": -3.925875,
                        "latitude": 5.26125
                    }
                }
            ]
        },
        {
            "country": "Djibouti",
            "airports": [
                {
                    "airport_code": "JIB",
                    "estimated_yearly_passengers": 0.25,
                    "location": {
                        "longitude": 43.159481,
                        "latitude": 11.547331
                    }
                }
            ]
        },
        {
            "country": "Egypt",
            "airports": [
                {
                    "airport_code": "CAI",
                    "estimated_yearly_passengers": 28.8,
                    "location": {
                        "longitude": 31.405556,
                        "latitude": 30.121944
                    }
                },
                {
                    "airport_code": "HRG",
                    "estimated_yearly_passengers": 8.7,
                    "location": {
                        "longitude": 33.800981,
                        "latitude": 27.178567
                    }
                },
                {
                    "airport_code": "SSH",
                    "estimated_yearly_passengers": 5.9,
                    "location": {
                        "longitude": 34.394944,
                        "latitude": 27.977319
                    }
                }
            ]
        },
        {
            "country": "Equatorial Guinea",
            "airports": [
                {
                    "airport_code": "SSG",
                    "estimated_yearly_passengers": 0.237,
                    "location": {
                        "longitude": 8.708717,
                        "latitude": 3.755267
                    }
                }
            ]
        },
        {
            "country": "Eritrea",
            "airports": [
                {
                    "airport_code": "ASM",
                    "estimated_yearly_passengers": 0.137,
                    "location": {
                        "longitude": 38.910667,
                        "latitude": 15.291853
                    }
                }
            ]
        },
        {
            "country": "Eswatini",
            "airports": [
                {
                    "airport_code": "SHO",
                    "estimated_yearly_passengers": 0.06,
                    "location": {
                        "longitude": 31.7225,
                        "latitude": 26.3487
                    }
                }
            ]
        },
        {
            "country": "Ethiopia",
            "airports": [
                {
                    "airport_code": "ADD",
                    "estimated_yearly_passengers": 12.1,
                    "location": {
                        "longitude": 38.799319,
                        "latitude": 8.977889
                    }
                }
            ]
        },
        {
            "country": "Gabon",
            "airports": [
                {
                    "airport_code": "LBV",
                    "estimated_yearly_passengers": 0.721,
                    "location": {
                        "longitude": 9.412283,
                        "latitude": 0.4586
                    }
                }
            ]
        },
        {
            "country": "Gambia",
            "airports": [
                {
                    "airport_code": "BJL",
                    "estimated_yearly_passengers": 0.3,
                    "location": {
                        "longitude": -16.652206,
                        "latitude": 13.337961
                    }
                }
            ]
        },
        {
            "country": "Ghana",
            "airports": [
                {
                    "airport_code": "ACC",
                    "estimated_yearly_passengers": 3.4,
                    "location": {
                        "longitude": -0.167728,
                        "latitude": 5.604461
                    }
                }
            ]
        },
        {
            "country": "Guinea",
            "airports": [
                {
                    "airport_code": "CKY",
                    "estimated_yearly_passengers": 0.789,
                    "location": {
                        "longitude": -13.611881,
                        "latitude": 9.576897
                    }
                }
            ]
        },
        {
            "country": "Guinea-Bissau",
            "airports": [
                {
                    "airport_code": "OXB",
                    "estimated_yearly_passengers": 0.742,
                    "location": {
                        "longitude": -15.653467,
                        "latitude": 11.895014
                    }
                }
            ]
        },
        {
            "country": "Kenya",
            "airports": [
                {
                    "airport_code": "NBO",
                    "estimated_yearly_passengers": 4.14,
                    "location": {
                        "longitude": 36.931264,
                        "latitude": -1.316617
                    }
                }
            ]
        },
        {
            "country": "Lesotho",
            "airports": [
                {
                    "airport_code": "MSU",
                    "estimated_yearly_passengers": 0.037,
                    "location": {
                        "longitude": 27.552503,
                        "latitude": -29.462256
                    }
                }
            ]
        },
        {
            "country": "Liberia",
            "airports": [
                {
                    "airport_code": "ROB",
                    "estimated_yearly_passengers": 0.228,
                    "location": {
                        "longitude": -10.362272,
                        "latitude": 6.233789
                    }
                }
            ]
        },
        {
            "country": "Libya",
            "airports": [
                {
                    "airport_code": "MJI",
                    "estimated_yearly_passengers": 3.0,
                    "location": {
                        "longitude": 13.283,
                        "latitude": 32.9
                    }
                },
                {
                    "airport_code": "BEN",
                    "estimated_yearly_passengers": 0.5,
                    "location": {
                        "longitude": 20.269472,
                        "latitude": 32.096786
                    }
                }
            ]
        },
        {
            "country": "Madagascar",
            "airports": [
                {
                    "airport_code": "TNR",
                    "estimated_yearly_passengers": 1.5,
                    "location": {
                        "longitude": 47.478806,
                        "latitude": -18.79695
                    }
                }
            ]
        },
        {
            "country": "Malawi",
            "airports": [
                {
                    "airport_code": "LLW",
                    "estimated_yearly_passengers": 0.3,
                    "location": {
                        "longitude": 33.781,
                        "latitude": -13.789378
                    }
                }
            ]
        },
        {
            "country": "Mali",
            "airports": [
                {
                    "airport_code": "BKO",
                    "estimated_yearly_passengers": 1.2,
                    "location": {
                        "longitude": -7.949872,
                        "latitude": 12.533242
                    }
                }
            ]
        },
        {
            "country": "Mauritania",
            "airports": [
                {
                    "airport_code": "NKC",
                    "estimated_yearly_passengers": 2.0,
                    "location": {
                        "longitude": -15.948031,
                        "latitude": 18.097772
                    }
                }
            ]
        },
        {
            "country": "Mauritius",
            "airports": [
                {
                    "airport_code": "MRU",
                    "estimated_yearly_passengers": 1.394,
                    "location": {
                        "longitude": 57.6830222,
                        "latitude": -20.4300278
                    }
                }
            ]
        },
        {
            "country": "Mozambique",
            "airports": [
                {
                    "airport_code": "MPM",
                    "estimated_yearly_passengers": 1.2,
                    "location": {
                        "longitude": 32.572486,
                        "latitude": -25.920886
                    }
                },
                {
                    "airport_code": "BEW",
                    "estimated_yearly_passengers": 0.25,
                    "location": {
                        "longitude": 34.907556,
                        "latitude": -19.796419
                    }
                }
            ]
        },
        {
            "country": "Namibia",
            "airports": [
                {
                    "airport_code": "WDH",
                    "estimated_yearly_passengers": 0.8,
                    "location": {
                        "longitude": 17.47095,
                        "latitude": -22.479894
                    }
                }
            ]
        },
        {
            "country": "Niger",
            "airports": [
                {
                    "airport_code": "NIM",
                    "estimated_yearly_passengers": 0.363,
                    "location": {
                        "longitude": 2.183278,
                        "latitude": 13.482239
                    }
                }
            ]
        },
        {
            "country": "Nigeria",
            "airports": [
                {
                    "airport_code": "LOS",
                    "estimated_yearly_passengers": 6.6,
                    "location": {
                        "longitude": 3.321156,
                        "latitude": 6.577369
                    }
                },
                {
                    "airport_code": "ABV",
                    "estimated_yearly_passengers": 5.49,
                    "location": {
                        "longitude": 7.263172,
                        "latitude": 9.006792
                    }
                },
                {
                    "airport_code": "PHC",
                    "estimated_yearly_passengers": 0.915,
                    "location": {
                        "longitude": 6.949594,
                        "latitude": 5.015494
                    }
                }
            ]
        },
        {
            "country": "Rwanda",
            "airports": [
                {
                    "airport_code": "KGL",
                    "estimated_yearly_passengers": 1.3,
                    "location": {
                        "longitude": 30.13945,
                        "latitude": -1.968628
                    }
                },
                {
                    "airport_code": "KME",
                    "estimated_yearly_passengers": 0.06,
                    "location": {
                        "longitude": 28.90795,
                        "latitude": -2.462242
                    }
                }
            ]
        },
        {
            "country": "Sao Tome and Principe",
            "airports": [
                {
                    "airport_code": "TMS",
                    "estimated_yearly_passengers": 0.03,
                    "location": {
                        "longitude": 6.712153,
                        "latitude": 0.378175
                    }
                }
            ]
        },
        {
            "country": "Senegal",
            "airports": [
                {
                    "airport_code": "DSS",
                    "estimated_yearly_passengers": 2.63,
                    "location": {
                        "longitude": -17.06694,
                        "latitude": 14.67111
                    }
                },
                {
                    "airport_code": "DKR",
                    "estimated_yearly_passengers": 2.1,
                    "location": {
                        "longitude": -17.490389,
                        "latitude": 14.740142
                    }
                }
            ]
        },
        {
            "country": "Seychelles",
            "airports": [
                {
                    "airport_code": "SEZ",
                    "estimated_yearly_passengers": 1.19,
                    "location": {
                        "longitude": 55.521856,
                        "latitude": -4.674344
                    }
                },
                {
                    "airport_code": "PRI",
                    "estimated_yearly_passengers": 0.1,
                    "location": {
                        "longitude": 55.691417,
                        "latitude": -4.319292
                    }
                }
            ]
        },
        {
            "country": "Sierra Leone",
            "airports": [
                {
                    "airport_code": "FNA",
                    "estimated_yearly_passengers": 0.317,
                    "location": {
                        "longitude": -13.195608,
                        "latitude": 8.616536
                    }
                }
            ]
        },
        {
            "country": "Somalia",
            "airports": [
                {
                    "airport_code": "MGQ",
                    "estimated_yearly_passengers": 0.4,
                    "location": {
                        "longitude": 45.304722,
                        "latitude": 2.013611
                    }
                },
                {
                    "airport_code": "HGA",
                    "estimated_yearly_passengers": 0.3,
                    "location": {
                        "longitude": 44.088758,
                        "latitude": 9.518167
                    }
                },
                {
                    "airport_code": "BSA",
                    "estimated_yearly_passengers": 0.15,
                    "location": {
                        "longitude": 49.15,
                        "latitude": 11.275556
                    }
                },
                {
                    "airport_code": "KMU",
                    "estimated_yearly_passengers": 0.1,
                    "location": {
                        "longitude": 42.459233,
                        "latitude": -0.377353
                    }
                }
            ]
        },
        {
            "country": "South Sudan",
            "airports": [
                {
                    "airport_code": "JUB",
                    "estimated_yearly_passengers": 1.2,
                    "location": {
                        "longitude": 31.601117,
                        "latitude": 4.872006
                    }
                }
            ]
        },
        {
            "country": "Sudan",
            "airports": [
                {
                    "airport_code": "KRT",
                    "estimated_yearly_passengers": 3.6,
                    "location": {
                        "longitude": 32.553161,
                        "latitude": 15.589497
                    }
                },
                {
                    "airport_code": "PZU",
                    "estimated_yearly_passengers": 0.0,
                    "location": {
                        "longitude": 37.23417,
                        "latitude": 19.43361
                    }
                }
            ]
        },
        {
            "country": "Togo",
            "airports": [
                {
                    "airport_code": "LFW",
                    "estimated_yearly_passengers": 1.507,
                    "location": {
                        "longitude": 1.2559,
                        "latitude": 6.1687
                    }
                },
                {
                    "airport_code": "LRL",
                    "estimated_yearly_passengers": 0.01,
                    "location": {
                        "longitude": 1.092781,
                        "latitude": 9.769628
                    }
                }
            ]
        },
        {
            "country": "Tunisia",
            "airports": [
                {
                    "airport_code": "TUN",
                    "estimated_yearly_passengers": 7.25,
                    "location": {
                        "longitude": 10.227217,
                        "latitude": 36.851033
                    }
                },
                {
                    "airport_code": "DJE",
                    "estimated_yearly_passengers": 2.204,
                    "location": {
                        "longitude": 10.775461,
                        "latitude": 33.875031
                    }
                },
                {
                    "airport_code": "MIR",
                    "estimated_yearly_passengers": 1.63,
                    "location": {
                        "longitude": 10.754722,
                        "latitude": 35.758056
                    }
                },
                {
                    "airport_code": "NBE",
                    "estimated_yearly_passengers": 1.29,
                    "location": {
                        "longitude": 10.4387,
                        "latitude": 36.0835
                    }
                },
                {
                    "airport_code": "SFA",
                    "estimated_yearly_passengers": 0.157,
                    "location": {
                        "longitude": 10.690972,
                        "latitude": 34.717953
                    }
                },
                {
                    "airport_code": "TOE",
                    "estimated_yearly_passengers": 0.032,
                    "location": {
                        "longitude": 8.110556,
                        "latitude": 33.939722
                    }
                },
                {
                    "airport_code": "TBJ",
                    "estimated_yearly_passengers": 0.003,
                    "location": {
                        "longitude": 8.876944,
                        "latitude": 36.98
                    }
                }
            ]
        },
        {
            "country": "Uganda",
            "airports": [
                {
                    "airport_code": "EBB",
                    "estimated_yearly_passengers": 2.243,
                    "location": {
                        "longitude": 32.443503,
                        "latitude": 0.042386
                    }
                },
                {
                    "airport_code": "RUA",
                    "estimated_yearly_passengers": 0.03,
                    "location": {
                        "longitude": 30.9137,
                        "latitude": 3.0486
                    }
                },
                {
                    "airport_code": "ULU",
                    "estimated_yearly_passengers": 0.0,
                    "location": {
                        "longitude": 32.271792,
                        "latitude": 2.805556
                    }
                },
                {
                    "airport_code": "KBA",
                    "estimated_yearly_passengers": 0.0,
                    "location": {
                        "longitude": 31.42,
                        "latitude": 1.44
                    }
                }
            ]
        }
    ],
    "North America": [
        {
            "country": "Antigua and Barbuda",
            "airports": [
                {
                    "airport_code": "ANU",
                    "estimated_yearly_passengers": 0.86,
                    "location": {
                        "longitude": -61.792667,
                        "latitude": 17.136749
                    }
                }
            ]
        },
        {
            "country": "Grenada",
            "airports": []
        },
        {
            "country": "Bahamas",
            "airports": [
                {
                    "airport_code": "NAS",
                    "estimated_yearly_passengers": 4.0,
                    "location": {
                        "longitude": -77.466231,
                        "latitude": 25.038958
                    }
                },
                {
                    "airport_code": "MHH",
                    "estimated_yearly_passengers": 0.0,
                    "location": {
                        "longitude": -77.083472,
                        "latitude": 26.511406
                    }
                },
                {
                    "airport_code": "FPO",
                    "estimated_yearly_passengers": 0.0,
                    "location": {
                        "longitude": -78.695553,
                        "latitude": 26.558686
                    }
                }
            ]
        },
        {
            "country": "Cuba",
            "airports": [
                {
                    "airport_code": "HAV",
                    "estimated_yearly_passengers": 9.6,
                    "location": {
                        "longitude": -82.409086,
                        "latitude": 22.989153
                    }
                },
                {
                    "airport_code": "VRA",
                    "estimated_yearly_passengers": 2.5,
                    "location": {
                        "longitude": -81.435322,
                        "latitude": 23.034542
                    }
                }
            ]
        },
        {
            "country": "Dominica",
            "airports": [
                {
                    "airport_code": "DOM",
                    "estimated_yearly_passengers": 0.06,
                    "location": {
                        "longitude": -61.3,
                        "latitude": 15.547028
                    }
                }
            ]
        },
        {
            "country": "Haiti",
            "airports": [
                {
                    "airport_code": "PAP",
                    "estimated_yearly_passengers": 2.0,
                    "location": {
                        "longitude": -72.292542,
                        "latitude": 18.58005
                    }
                }
            ]
        },
        {
            "country": "Jamaica",
            "airports": [
                {
                    "airport_code": "MBJ",
                    "estimated_yearly_passengers": 5.1,
                    "location": {
                        "longitude": -77.913358,
                        "latitude": 18.503717
                    }
                },
                {
                    "airport_code": "KIN",
                    "estimated_yearly_passengers": 1.8,
                    "location": {
                        "longitude": -76.7875,
                        "latitude": 17.935667
                    }
                }
            ]
        },
        {
            "country": "Saint Kitts and Nevis",
            "airports": [
                {
                    "airport_code": "SKB",
                    "estimated_yearly_passengers": 0.326,
                    "location": {
                        "longitude": -62.718567,
                        "latitude": 17.311261
                    }
                }
            ]
        },
        {
            "country": "Saint Lucia",
            "airports": [
                {
                    "airport_code": "UVF",
                    "estimated_yearly_passengers": 0.7,
                    "location": {
                        "longitude": -60.952597,
                        "latitude": 13.733194
                    }
                },
                {
                    "airport_code": "SLU",
                    "estimated_yearly_passengers": 0.394,
                    "location": {
                        "longitude": -60.992936,
                        "latitude": 14.020228
                    }
                }
            ]
        },
        {
            "country": "Saint Vincent and the Grenadines",
            "airports": [
                {
                    "airport_code": "SVD",
                    "estimated_yearly_passengers": 0.611,
                    "location": {
                        "longitude": -61.150278,
                        "latitude": 13.156389
                    }
                }
            ]
        },
        {
            "country": "Trinidad and Tobago",
            "airports": [
                {
                    "airport_code": "POS",
                    "estimated_yearly_passengers": 1.94,
                    "location": {
                        "longitude": -61.337242,
                        "latitude": 10.595369
                    }
                },
                {
                    "airport_code": "TAB",
                    "estimated_yearly_passengers": 0.6,
                    "location": {
                        "longitude": -60.832194,
                        "latitude": 11.149658
                    }
                }
            ]
        }
    ],
    "South America": [
        {
            "country": "Bolivia",
            "airports": [
                {
                    "airport_code": "VVI",
                    "estimated_yearly_passengers": 4.116,
                    "location": {
                        "longitude": -63.135364,
                        "latitude": -17.644756
                    }
                },
                {
                    "airport_code": "LPB",
                    "estimated_yearly_passengers": 5.6,
                    "location": {
                        "longitude": -68.192256,
                        "latitude": -16.513339
                    }
                },
                {
                    "airport_code": "CBB",
                    "estimated_yearly_passengers": 2.688,
                    "location": {
                        "longitude": -66.177114,
                        "latitude": -17.421058
                    }
                }
            ]
        },
        {
            "country": "Guyana",
            "airports": [
                {
                    "airport_code": "GEO",
                    "estimated_yearly_passengers": 0.857,
                    "location": {
                        "longitude": -58.254119,
                        "latitude": 6.498553
                    }
                }
            ]
        },
        {
            "country": "Suriname",
            "airports": [
                {
                    "airport_code": "PBM",
                    "estimated_yearly_passengers": 0.464,
                    "location": {
                        "longitude": -55.187783,
                        "latitude": 5.452831
                    }
                },
                {
                    "airport_code": "ORG",
                    "estimated_yearly_passengers": 0.03,
                    "location": {
                        "longitude": -55.19028,
                        "latitude": 5.81111
                    }
                }
            ]
        }
    ],
    "Oceania": [
        {
            "country": "Fiji",
            "airports": [
                {
                    "airport_code": "NAN",
                    "estimated_yearly_passengers": 2.4,
                    "location": {
                        "longitude": 177.443822,
                        "latitude": -17.755019
                    }
                }
            ]
        },
        {
            "country": "Kiribati",
            "airports": [
                {
                    "airport_code": "TRW",
                    "estimated_yearly_passengers": 0.11,
                    "location": {
                        "longitude": 173.147036,
                        "latitude": 1.381636
                    }
                }
            ]
        },
        {
            "country": "Marshall Islands",
            "airports": [
                {
                    "airport_code": "MAJ",
                    "estimated_yearly_passengers": 0.05,
                    "location": {
                        "longitude": 171.272022,
                        "latitude": 7.064758
                    }
                }
            ]
        },
        {
            "country": "Micronesia",
            "airports": [
                {
                    "airport_code": "PNI",
                    "estimated_yearly_passengers": 0.05,
                    "location": {
                        "longitude": 158.208989,
                        "latitude": 6.9851
                    }
                }
            ]
        },
        {
            "country": "Nauru",
            "airports": [
                {
                    "airport_code": "INU",
                    "estimated_yearly_passengers": 0.03,
                    "location": {
                        "longitude": 166.9191,
                        "latitude": -0.5474583
                    }
                }
            ]
        },
        {
            "country": "Palau",
            "airports": [
                {
                    "airport_code": "ROR",
                    "estimated_yearly_passengers": 0.2,
                    "location": {
                        "longitude": 134.544278,
                        "latitude": 7.367303
                    }
                }
            ]
        },
        {
            "country": "Papua New Guinea",
            "airports": [
                {
                    "airport_code": "POM",
                    "estimated_yearly_passengers": 1.5,
                    "location": {
                        "longitude": 147.22005,
                        "latitude": -9.443383
                    }
                }
            ]
        },
        {
            "country": "Samoa",
            "airports": [
                {
                    "airport_code": "APW",
                    "estimated_yearly_passengers": 0.5,
                    "location": {
                        "longitude": -172.008336,
                        "latitude": -13.829969
                    }
                }
            ]
        },
        {
            "country": "Solomon Islands",
            "airports": [
                {
                    "airport_code": "HIR",
                    "estimated_yearly_passengers": 0.2,
                    "location": {
                        "longitude": 160.054789,
                        "latitude": -9.428
                    }
                },
                {
                    "airport_code": "MUA",
                    "estimated_yearly_passengers": 0.04,
                    "location": {
                        "longitude": 157.263092,
                        "latitude": -8.327969
                    }
                },
                {
                    "airport_code": "GZO",
                    "estimated_yearly_passengers": 0.03,
                    "location": {
                        "longitude": 156.86417,
                        "latitude": -8.09861
                    }
                }
            ]
        },
        {
            "country": "Tonga",
            "airports": [
                {
                    "airport_code": "TBU",
                    "estimated_yearly_passengers": 0.213,
                    "location": {
                        "longitude": -175.149644,
                        "latitude": -21.241214
                    }
                },
                {
                    "airport_code": "VAV",
                    "estimated_yearly_passengers": 0.062,
                    "location": {
                        "longitude": -173.961717,
                        "latitude": -18.585336
                    }
                }
            ]
        },
        {
            "country": "Tuvalu",
            "airports": [
                {
                    "airport_code": "FUN",
                    "estimated_yearly_passengers": 0.003,
                    "location": {
                        "longitude": 179.1969,
                        "latitude": -8.5239
                    }
                }
            ]
        }
    ]
}