{
    "Africa": [
        {
            "country": "Algeria",
            "airports": [
                {
                    "airport_code": "ALG",
                    "international/domestic": "international",
                    "estimated_yearly_passengers": 9.151517,
                    "location": {
                        "longitude": 3.2154,
                        "latitude": 36.691
                    }
                },
                {
                    "airport_code": "ORN",
                    "international/domestic": "international",
                    "estimated_yearly_passengers": 1.4702279999999999,
                    "location": {
                        "longitude": -0.6212,
                        "latitude": 35.6239
                    }
                },
                {
                    "airport_code": "CZL",
                    "international/domestic": "international",
                    "estimated_yearly_passengers": 1.0924909999999999,
                    "location": {
                        "longitude": 6.6204,
                        "latitude": 36.276
                    }
                },
                {
                    "airport_code": "AAE",
                    "international/domestic": "international",
                    "estimated_yearly_passengers": 0.515481,
                    "location": {
                        "longitude": 7.8092,
                        "latitude": 36.8222
                    }
                },
                {
                    "airport_code": "BJA",
                    "international/domestic": "international",
                    "estimated_yearly_passengers": 0.205312,
                    "location": {
                        "longitude": 5.0697,
                        "latitude": 36.7111
                    }
                },
                {
                    "airport_code": "QSF",
                    "international/domestic": "international",
                    "estimated_yearly_passengers": 0.20057799999999998,
                    "location": {
                        "longitude": 5.3245,
                        "latitude": 36.1781
                    }
                },
                {
                    "airport_code": "TLM",
                    "international/domestic": "international",
                    "estimated_yearly_passengers": 0.211092,
                    "location": {
                        "longitude": -1.45,
                        "latitude": 35.0174
                    }
                },
                {
                    "airport_code": "TMX",
                    "international/domestic": "international",
                    "estimated_yearly_passengers": 0.063493,
                    "location": {
                        "longitude": 0.276,
                        "latitude": 29.2371
                    }
                },
                {
                    "airport_code": "GHA",
                    "international/domestic": "international",
                    "estimated_yearly_passengers": 0.045022,
                    "location": {
                        "longitude": 3.7941,
                        "latitude": 32.3841
                    }
                },
                {
                    "airport_code": "BMW",
                    "international/domestic": "international",
                    "estimated_yearly_passengers": 0.08809199999999999,
                    "location": {
                        "longitude": 0.9239,
                        "latitude": 21.375
                    }
                },
                {
                    "airport_code": "ELU",
                    "international/domestic": "international",
                    "estimated_yearly_passengers": 0.022098,
                    "location": {
                        "longitude": 6.7768,
                        "latitude": 33.5114
                    }
                },
                {
                    "airport_code": "BLJ",
                    "international/domestic": "international",
                    "estimated_yearly_passengers": 0.078285,
                    "location": {
                        "longitude": 6.3086,
                        "latitude": 35.7522
                    }
                },
                {
                    "airport_code": "BSK",
                    "international/domestic": "international",
                    "estimated_yearly_passengers": 0.136718,
                    "location": {
                        "longitude": 5.7382,
                        "latitude": 34.7933
                    }
                },
                {
                    "airport_code": "HME",
                    "international/domestic": "international",
                    "estimated_yearly_passengers": 0.0,
                    "location": {
                        "longitude": 6.1404,
                        "latitude": 31.673
                    }
                },
                {
                    "airport_code": "OGX",
                    "international/domestic": "international",
                    "estimated_yearly_passengers": 0.0,
                    "location": {
                        "longitude": 5.4128,
                        "latitude": 31.9172
                    }
                },
                {
                    "airport_code": "CBH",
                    "international/domestic": "international",
                    "estimated_yearly_passengers": 0.0,
                    "location": {
                        "longitude": -2.2699,
                        "latitude": 31.6457
                    }
                },
                {
                    "airport_code": "AZR",
                    "international/domestic": "international",
                    "estimated_yearly_passengers": 0.0,
                    "location": {
                        "longitude": -0.1864,
                        "latitude": 27.8376
                    }
                },
                {
                    "airport_code": "TMR",
                    "international/domestic": "international",
                    "estimated_yearly_passengers": 0.0,
                    "location": {
                        "longitude": 5.4511,
                        "latitude": 22.8115
                    }
                },
                {
                    "airport_code": "DJG",
                    "international/domestic": "international",
                    "estimated_yearly_passengers": 0.0,
                    "location": {
                        "longitude": 9.4524,
                        "latitude": 24.2928
                    }
                },
                {
                    "airport_code": "TEE",
                    "international/domestic": "international",
                    "estimated_yearly_passengers": 0.0,
                    "location": {
                        "longitude": 8.12,
                        "latitude": 35.4316
                    }
                },
                {
                    "airport_code": "INZ",
                    "international/domestic": "international",
                    "estimated_yearly_passengers": 0.0,
                    "location": {
                        "longitude": 2.512,
                        "latitude": 27.251
                    }
                },
                {
                    "airport_code": "IAM",
                    "international/domestic": "international",
                    "estimated_yearly_passengers": 0.0,
                    "location": {
                        "longitude": 9.6429,
                        "latitude": 28.0515
                    }
                },
                {
                    "airport_code": "TIN",
                    "international/domestic": "international",
                    "estimated_yearly_passengers": 0.0,
                    "location": {
                        "longitude": -8.1671,
                        "latitude": 27.7004
                    }
                },
                {
                    "airport_code": "TID",
                    "international/domestic": "international",
                    "estimated_yearly_passengers": 0.0,
                    "location": {
                        "longitude": 1.4631,
                        "latitude": 35.3414
                    }
                },
                {
                    "airport_code": "TGR",
                    "international/domestic": "international",
                    "estimated_yearly_passengers": 0.010884,
                    "location": {
                        "longitude": 6.0887,
                        "latitude": 33.0678
                    }
                },
                {
                    "airport_code": "VVZ",
                    "international/domestic": "international",
                    "estimated_yearly_passengers": 0.0,
                    "location": {
                        "longitude": 8.6227,
                        "latitude": 26.7235
                    }
                },
                {
                    "airport_code": "ELG",
                    "international/domestic": "domestic",
                    "estimated_yearly_passengers": 0.0,
                    "location": {
                        "longitude": 2.8596,
                        "latitude": 30.5713
                    }
                },
                {
                    "airport_code": "EBH",
                    "international/domestic": "domestic",
                    "estimated_yearly_passengers": 0.0,
                    "location": {
                        "longitude": 1.0926,
                        "latitude": 33.7217
                    }
                },
                {
                    "airport_code": "BUJ",
                    "international/domestic": "domestic",
                    "estimated_yearly_passengers": 0.0,
                    "location": {
                        "longitude": 4.2064,
                        "latitude": 35.3325
                    }
                },
                {
                    "airport_code": "INF",
                    "international/domestic": "domestic",
                    "estimated_yearly_passengers": 0.0,
                    "location": {
                        "longitude": 5.75,
                        "latitude": 19.568
                    }
                },
                {
                    "airport_code": "MUW",
                    "international/domestic": "domestic",
                    "estimated_yearly_passengers": 0.0,
                    "location": {
                        "longitude": 0.1471,
                        "latitude": 35.2081
                    }
                }
            ]
        }
    ],
    "Europe": [],
    "North America": [],
    "South America": [
        {
            "country": "Argentina",
            "airports": [
                {
                    "airport_code": "AEP",
                    "international/domestic": "international",
                    "estimated_yearly_passengers": 6.983,
                    "location": {
                        "longitude": -58.41583,
                        "latitude": -34.55917
                    }
                },
                {
                    "airport_code": "EZE",
                    "international/domestic": "international",
                    "estimated_yearly_passengers": 11.077,
                    "location": {
                        "longitude": -58.53583,
                        "latitude": -34.82222
                    }
                },
                {
                    "airport_code": "EPA",
                    "international/domestic": "international",
                    "estimated_yearly_passengers": 0.0,
                    "location": {
                        "longitude": -58.6125,
                        "latitude": -34.60972
                    }
                },
                {
                    "airport_code": "COR",
                    "international/domestic": "international",
                    "estimated_yearly_passengers": 1.396,
                    "location": {
                        "longitude": -64.20778,
                        "latitude": -31.32361
                    }
                },
                {
                    "airport_code": "COC",
                    "international/domestic": "international",
                    "estimated_yearly_passengers": 0.0,
                    "location": {
                        "longitude": -57.99639,
                        "latitude": -31.29694
                    }
                },
                {
                    "airport_code": "CRD",
                    "international/domestic": "international",
                    "estimated_yearly_passengers": 0.25,
                    "location": {
                        "longitude": -67.46528,
                        "latitude": -45.78528
                    }
                },
                {
                    "airport_code": "CTC",
                    "international/domestic": "international",
                    "estimated_yearly_passengers": 0.0,
                    "location": {
                        "longitude": -65.75083,
                        "latitude": -28.59306
                    }
                },
                {
                    "airport_code": "BRC",
                    "international/domestic": "international",
                    "estimated_yearly_passengers": 0.988,
                    "location": {
                        "longitude": -71.1575,
                        "latitude": -41.15111
                    }
                },
                {
                    "airport_code": "FTE",
                    "international/domestic": "international",
                    "estimated_yearly_passengers": 0.471,
                    "location": {
                        "longitude": -72.05306,
                        "latitude": -50.28028
                    }
                },
                {
                    "airport_code": "FMA",
                    "international/domestic": "international",
                    "estimated_yearly_passengers": 0.0,
                    "location": {
                        "longitude": -58.22806,
                        "latitude": -26.2125
                    }
                },
                {
                    "airport_code": "ELO",
                    "international/domestic": "international",
                    "estimated_yearly_passengers": 0.0,
                    "location": {
                        "longitude": -54.57472,
                        "latitude": -26.39778
                    }
                },
                {
                    "airport_code": "EQS",
                    "international/domestic": "international",
                    "estimated_yearly_passengers": 0.0,
                    "location": {
                        "longitude": -71.13944,
                        "latitude": -42.90778
                    }
                },
                {
                    "airport_code": "CNQ",
                    "international/domestic": "international",
                    "estimated_yearly_passengers": 0.0,
                    "location": {
                        "longitude": -58.76278,
                        "latitude": -27.44528
                    }
                },
                {
                    "airport_code": "IGR",
                    "international/domestic": "international",
                    "estimated_yearly_passengers": 0.6719999999999999,
                    "location": {
                        "longitude": -54.52556,
                        "latitude": -25.59778
                    }
                },
                {
                    "airport_code": "IGB",
                    "international/domestic": "domestic",
                    "estimated_yearly_passengers": 0.0,
                    "location": {
                        "longitude": -69.575,
                        "latitude": -41.3225
                    }
                },
                {
                    "airport_code": "MDQ",
                    "international/domestic": "international",
                    "estimated_yearly_passengers": 0.16999999999999998,
                    "location": {
                        "longitude": -57.57333,
                        "latitude": -37.93417
                    }
                },
                {
                    "airport_code": "REL",
                    "international/domestic": "international",
                    "estimated_yearly_passengers": 0.0,
                    "location": {
                        "longitude": -65.30972,
                        "latitude": -43.24833
                    }
                },
                {
                    "airport_code": "EHL",
                    "international/domestic": "international",
                    "estimated_yearly_passengers": 0.0,
                    "location": {
                        "longitude": -71.53222,
                        "latitude": -41.94306
                    }
                },
                {
                    "airport_code": "LGS",
                    "international/domestic": "international",
                    "estimated_yearly_passengers": 0.0,
                    "location": {
                        "longitude": -69.57833,
                        "latitude": -35.49333
                    }
                },
                {
                    "airport_code": "LGS",
                    "international/domestic": "international",
                    "estimated_yearly_passengers": 0.0,
                    "location": {
                        "longitude": -69.57833,
                        "latitude": -35.49333
                    }
                },
                {
                    "airport_code": "RES",
                    "international/domestic": "international",
                    "estimated_yearly_passengers": 0.0,
                    "location": {
                        "longitude": -59.05389,
                        "latitude": -27.44972
                    }
                },
                {
                    "airport_code": "SFN",
                    "international/domestic": "international",
                    "estimated_yearly_passengers": 0.0,
                    "location": {
                        "longitude": -60.95417,
                        "latitude": -31.705
                    }
                },
                {
                    "airport_code": "APZ",
                    "international/domestic": "domestic",
                    "estimated_yearly_passengers": 0.0,
                    "location": {
                        "longitude": -58.78944,
                        "latitude": -34.56056
                    }
                },
                {
                    "airport_code": "FDO",
                    "international/domestic": "domestic",
                    "estimated_yearly_passengers": 0.0,
                    "location": {
                        "longitude": -58.5906,
                        "latitude": -34.452
                    }
                },
                {
                    "airport_code": "RGA",
                    "international/domestic": "international",
                    "estimated_yearly_passengers": 0.0,
                    "location": {
                        "longitude": -67.74917,
                        "latitude": -53.77778
                    }
                },
                {
                    "airport_code": "RGL",
                    "international/domestic": "international",
                    "estimated_yearly_passengers": 0.0,
                    "location": {
                        "longitude": -69.28528,
                        "latitude": -51.61111
                    }
                },
                {
                    "airport_code": "USH",
                    "international/domestic": "international",
                    "estimated_yearly_passengers": 0.5559999999999999,
                    "location": {
                        "longitude": -68.295,
                        "latitude": -54.84306
                    }
                },
                {
                    "airport_code": "JUJ",
                    "international/domestic": "international",
                    "estimated_yearly_passengers": 0.267,
                    "location": {
                        "longitude": -65.08944,
                        "latitude": -24.44083
                    }
                },
                {
                    "airport_code": "TUC",
                    "international/domestic": "international",
                    "estimated_yearly_passengers": 0.354,
                    "location": {
                        "longitude": -65.10417,
                        "latitude": -26.83639
                    }
                },
                {
                    "airport_code": "PSS",
                    "international/domestic": "international",
                    "estimated_yearly_passengers": 0.16499999999999998,
                    "location": {
                        "longitude": -55.96806,
                        "latitude": -27.38667
                    }
                },
                {
                    "airport_code": "ROS",
                    "international/domestic": "international",
                    "estimated_yearly_passengers": 0.214,
                    "location": {
                        "longitude": -60.785,
                        "latitude": -32.90361
                    }
                },
                {
                    "airport_code": "GPO",
                    "international/domestic": "domestic",
                    "estimated_yearly_passengers": 0.0,
                    "location": {
                        "longitude": -63.75778,
                        "latitude": -35.695
                    }
                },
                {
                    "airport_code": "AFA",
                    "international/domestic": "domestic",
                    "estimated_yearly_passengers": 0.0,
                    "location": {
                        "longitude": -68.40278,
                        "latitude": -34.61139
                    }
                },
                {
                    "airport_code": "BRC",
                    "international/domestic": "international",
                    "estimated_yearly_passengers": 0.988,
                    "location": {
                        "longitude": -71.1575,
                        "latitude": -41.15111
                    }
                },
                {
                    "airport_code": "CPC",
                    "international/domestic": "domestic",
                    "estimated_yearly_passengers": 0.0,
                    "location": {
                        "longitude": -71.13722,
                        "latitude": -40.07806
                    }
                },
                {
                    "airport_code": "RSA",
                    "international/domestic": "domestic",
                    "estimated_yearly_passengers": 0.0,
                    "location": {
                        "longitude": -64.2839,
                        "latitude": -36.587
                    }
                },
                {
                    "airport_code": "VDM",
                    "international/domestic": "domestic",
                    "estimated_yearly_passengers": 0.0,
                    "location": {
                        "longitude": -63.00583,
                        "latitude": -40.69972
                    }
                },
                {
                    "airport_code": "GNR",
                    "international/domestic": "domestic",
                    "estimated_yearly_passengers": 0.0,
                    "location": {
                        "longitude": -67.61917,
                        "latitude": -39.00056
                    }
                },
                {
                    "airport_code": "BHI",
                    "international/domestic": "international",
                    "estimated_yearly_passengers": 0.0,
                    "location": {
                        "longitude": -62.20111,
                        "latitude": -38.71111
                    }
                },
                {
                    "airport_code": "CNQ",
                    "international/domestic": "international",
                    "estimated_yearly_passengers": 0.0,
                    "location": {
                        "longitude": -58.76278,
                        "latitude": -27.44528
                    }
                },
                {
                    "airport_code": "HOS",
                    "international/domestic": "domestic",
                    "estimated_yearly_passengers": 0.0,
                    "location": {
                        "longitude": -70.22222,
                        "latitude": -37.44472
                    }
                },
                {
                    "airport_code": "CUT",
                    "international/domestic": "domestic",
                    "estimated_yearly_passengers": 0.0,
                    "location": {
                        "longitude": -69.26444,
                        "latitude": -38.93944
                    }
                },
                {
                    "airport_code": "OES",
                    "international/domestic": "domestic",
                    "estimated_yearly_passengers": 0.0,
                    "location": {
                        "longitude": -65.03417,
                        "latitude": -40.75111
                    }
                },
                {
                    "airport_code": "RDS",
                    "international/domestic": "domestic",
                    "estimated_yearly_passengers": 0.0,
                    "location": {
                        "longitude": -68.90583,
                        "latitude": -37.39056
                    }
                },
                {
                    "airport_code": "RYO",
                    "international/domestic": "domestic",
                    "estimated_yearly_passengers": 0.0,
                    "location": {
                        "longitude": -72.21972,
                        "latitude": -51.60028
                    }
                },
                {
                    "airport_code": "PMQ",
                    "international/domestic": "domestic",
                    "estimated_yearly_passengers": 0.0,
                    "location": {
                        "longitude": -70.97306,
                        "latitude": -46.5875
                    }
                },
                {
                    "airport_code": "PMY",
                    "international/domestic": "international",
                    "estimated_yearly_passengers": 0.0,
                    "location": {
                        "longitude": -65.10278,
                        "latitude": -42.75972
                    }
                },
                {
                    "airport_code": "FTE",
                    "international/domestic": "international",
                    "estimated_yearly_passengers": 0.0,
                    "location": {
                        "longitude": -72.24861,
                        "latitude": -50.33556
                    }
                },
                {
                    "airport_code": "LHS",
                    "international/domestic": "domestic",
                    "estimated_yearly_passengers": 0.0,
                    "location": {
                        "longitude": -68.96528,
                        "latitude": -46.53944
                    }
                },
                {
                    "airport_code": "GGS",
                    "international/domestic": "domestic",
                    "estimated_yearly_passengers": 0.0,
                    "location": {
                        "longitude": -70.14806,
                        "latitude": -48.78278
                    }
                },
                {
                    "airport_code": "RGA",
                    "international/domestic": "international",
                    "estimated_yearly_passengers": 0.0,
                    "location": {
                        "longitude": -67.74917,
                        "latitude": -53.77778
                    }
                },
                {
                    "airport_code": "NCJ",
                    "international/domestic": "domestic",
                    "estimated_yearly_passengers": 0.0,
                    "location": {
                        "longitude": -61.526,
                        "latitude": -29.957
                    }
                }
            ]
        }
    ],
    "Asia": [],
    "Oceania": []
}